## Papenmeier, Svenja; Hass, H Christian (2019): Sidescan sonar survey (300 kHz) during R/V Heincke cruise HE501 in the German Bight with link to raw data files. Alfred Wegener Institute - Wadden Sea Station Sylt, PANGAEA, https://doi.org/10.1594/PANGAEA.907463
##
$GPGGA,203550.00,5436.81532132,N,00709.04614388,E,2,09,0.9,7.903,M,45.318,M,15.8,0762*7A
$GPVTG,264.42,T,,M,4.95,N,9.16,K,D*38
$GPZDA,203550.008,15,11,2017,00,00*5F
$GPRMC,203550.00,A,5436.81532132,N,00709.04614388,E,4.949,264.422,151117,999.9000,E,D*04
$GPGLL,5436.81532132,N,00709.04614388,E,203550.00,A,D*6E
$GPGGA,203551.00,5436.81515710,N,00709.04355459,E,2,09,0.9,7.730,M,45.318,M,16.8,0762*7E
$GPVTG,261.51,T,,M,5.61,N,10.40,K,D*0E
$GPZDA,203551.008,15,11,2017,00,00*5E
$GPRMC,203551.00,A,5436.81515710,N,00709.04355459,E,5.613,261.515,151117,999.9000,E,D*0C
$GPGLL,5436.81515710,N,00709.04355459,E,203551.00,A,D*67
$GPGGA,203552.00,5436.81511167,N,00709.04088587,E,2,09,0.9,6.814,M,45.318,M,17.8,0762*77
$GPVTG,270.79,T,,M,5.58,N,10.33,K,D*0A
$GPZDA,203552.008,15,11,2017,00,00*5D
$GPRMC,203552.00,A,5436.81511167,N,00709.04088587,E,5.580,270.785,151117,999.9000,E,D*0E
$GPGLL,5436.81511167,N,00709.04088587,E,203552.00,A,D*67
$GPGGA,203553.00,5436.81529156,N,00709.03843203,E,2,09,0.9,6.191,M,45.318,M,18.8,0762*77
$GPVTG,278.99,T,,M,4.93,N,9.13,K,D*30
$GPZDA,203553.009,15,11,2017,00,00*5D
$GPRMC,203553.00,A,5436.81529156,N,00709.03843203,E,4.929,278.990,151117,999.9000,E,D*09
$GPGLL,5436.81529156,N,00709.03843203,E,203553.00,A,D*6C
$GPGGA,203554.00,5436.81542736,N,00709.03627009,E,2,09,0.9,6.572,M,45.318,M,19.8,0762*71
$GPVTG,272.70,T,,M,4.28,N,7.94,K,D*3C
$GPZDA,203554.009,15,11,2017,00,00*5A
$GPRMC,203554.00,A,5436.81542736,N,00709.03627009,E,4.285,272.700,151117,999.9000,E,D*07
$GPGLL,5436.81542736,N,00709.03627009,E,203554.00,A,D*62
$GPGGA,203555.00,5436.81538281,N,00709.03407400,E,2,09,0.9,7.313,M,45.318,M,20.8,0762*73
$GPVTG,264.74,T,,M,4.77,N,8.84,K,D*3B
$GPZDA,203555.009,15,11,2017,00,00*5B
$GPRMC,203555.00,A,5436.81538281,N,00709.03407400,E,4.772,264.742,151117,999.9000,E,D*03
$GPGLL,5436.81538281,N,00709.03407400,E,203555.00,A,D*6A
$GPGGA,203556.00,5436.81510018,N,00709.03166235,E,2,09,0.9,7.566,M,45.318,M,21.8,0762*7F
$GPVTG,265.81,T,,M,5.50,N,10.19,K,D*09
$GPZDA,203556.009,15,11,2017,00,00*58
$GPRMC,203556.00,A,5436.81510018,N,00709.03166235,E,5.503,265.814,151117,999.9000,E,D*02
$GPGLL,5436.81510018,N,00709.03166235,E,203556.00,A,D*63
$GPGGA,203557.00,5436.81497126,N,00709.02904758,E,2,09,0.9,6.981,M,45.318,M,22.8,0762*78
$GPVTG,269.00,T,,M,5.54,N,10.26,K,D*04
$GPZDA,203557.008,15,11,2017,00,00*58
$GPRMC,203557.00,A,5436.81497126,N,00709.02904758,E,5.539,269.001,151117,999.9000,E,D*0B
$GPGLL,5436.81497126,N,00709.02904758,E,203557.00,A,D*63
$GPGGA,203558.00,5436.81497425,N,00709.02660457,E,2,09,0.9,6.568,M,45.318,M,23.8,0762*7A
$GPVTG,270.86,T,,M,4.89,N,9.06,K,D*39
$GPZDA,203558.008,15,11,2017,00,00*57
$GPRMC,203558.00,A,5436.81497425,N,00709.02660457,E,4.891,270.862,151117,999.9000,E,D*08
$GPGLL,5436.81497425,N,00709.02660457,E,203558.00,A,D*6B
$GPGGA,203559.00,5436.81494926,N,00709.02441453,E,2,09,0.9,6.991,M,45.318,M,24.8,0762*7E
$GPVTG,268.14,T,,M,4.48,N,8.31,K,D*33
$GPZDA,203559.009,15,11,2017,00,00*57
$GPRMC,203559.00,A,5436.81494926,N,00709.02441453,E,4.484,268.143,151117,999.9000,E,D*0A
$GPGLL,5436.81494926,N,00709.02441453,E,203559.00,A,D*62
$GPGGA,203600.00,5436.81486324,N,00709.02219871,E,2,09,0.9,7.684,M,45.318,M,25.8,0762*76
$GPVTG,265.93,T,,M,4.73,N,8.76,K,D*3A
$GPZDA,203600.008,15,11,2017,00,00*59
$GPRMC,203600.00,A,5436.81486324,N,00709.02219871,E,4.728,265.934,151117,999.9000,E,D*09
$GPGLL,5436.81486324,N,00709.02219871,E,203600.00,A,D*61
$GPGGA,203601.00,5436.81485909,N,00709.01974766,E,2,09,0.9,7.700,M,45.318,M,26.8,0762*75
$GPVTG,269.01,T,,M,5.26,N,9.74,K,D*3F
$GPZDA,203601.008,15,11,2017,00,00*58
$GPRMC,203601.00,A,5436.81485909,N,00709.01974766,E,5.258,269.010,151117,999.9000,E,D*04
$GPGLL,5436.81485909,N,00709.01974766,E,203601.00,A,D*6C
$GPGGA,203602.00,5436.81493555,N,00709.01718864,E,2,09,0.9,7.143,M,45.318,M,27.8,0762*7D
$GPVTG,270.17,T,,M,5.33,N,9.88,K,D*37
$GPZDA,203602.008,15,11,2017,00,00*5B
$GPRMC,203602.00,A,5436.81493555,N,00709.01718864,E,5.334,270.169,151117,999.9000,E,D*00
$GPGLL,5436.81493555,N,00709.01718864,E,203602.00,A,D*64
$GPGGA,203603.00,5436.81493838,N,00709.01480003,E,2,09,0.9,6.925,M,45.318,M,28.8,0762*77
$GPVTG,267.12,T,,M,4.81,N,8.90,K,D*34
$GPZDA,203603.008,15,11,2017,00,00*5A
$GPRMC,203603.00,A,5436.81493838,N,00709.01480003,E,4.805,267.123,151117,999.9000,E,D*0C
$GPGLL,5436.81493838,N,00709.01480003,E,203603.00,A,D*68
$GPGGA,203604.00,5436.81481782,N,00709.01259116,E,2,09,0.9,7.136,M,45.318,M,11.2,0762*71
$GPVTG,263.83,T,,M,4.49,N,8.31,K,D*37
$GPZDA,203604.009,15,11,2017,00,00*5C
$GPRMC,203604.00,A,5436.81481782,N,00709.01259116,E,4.486,263.833,151117,999.9000,E,D*0A
$GPGLL,5436.81481782,N,00709.01259116,E,203604.00,A,D*65
$GPGGA,203605.00,5436.81472415,N,00709.01028342,E,2,09,0.9,7.223,M,45.318,M,12.2,0762*72
$GPVTG,268.24,T,,M,5.00,N,9.27,K,D*3B
$GPZDA,203605.009,15,11,2017,00,00*5D
$GPRMC,203605.00,A,5436.81472415,N,00709.01028342,E,5.003,268.240,151117,999.9000,E,D*00
$GPGLL,5436.81472415,N,00709.01028342,E,203605.00,A,D*62
$GPGGA,203606.00,5436.81471644,N,00709.00776692,E,2,09,0.9,6.729,M,45.318,M,13.2,0762*7E
$GPVTG,270.95,T,,M,5.32,N,9.85,K,D*31
$GPZDA,203606.009,15,11,2017,00,00*5E
$GPRMC,203606.00,A,5436.81471644,N,00709.00776692,E,5.320,270.953,151117,999.9000,E,D*01
$GPGLL,5436.81471644,N,00709.00776692,E,203606.00,A,D*61
$GPGGA,203607.00,5436.81470242,N,00709.00535680,E,2,09,0.9,6.428,M,45.318,M,14.2,0762*7F
$GPVTG,269.84,T,,M,4.78,N,8.86,K,D*34
$GPZDA,203607.009,15,11,2017,00,00*5F
$GPRMC,203607.00,A,5436.81470242,N,00709.00535680,E,4.782,269.841,151117,999.9000,E,D*02
$GPGLL,5436.81470242,N,00709.00535680,E,203607.00,A,D*65
$GPGGA,203608.00,5436.81461893,N,00709.00314467,E,2,09,0.9,6.781,M,45.318,M,15.2,0762*79
$GPVTG,263.66,T,,M,4.54,N,8.41,K,D*37
$GPZDA,203608.009,15,11,2017,00,00*50
$GPRMC,203608.00,A,5436.81461893,N,00709.00314467,E,4.540,263.657,151117,999.9000,E,D*0A
$GPGLL,5436.81461893,N,00709.00314467,E,203608.00,A,D*62
$GPGGA,203609.00,5436.81439917,N,00709.00091357,E,2,09,0.9,7.245,M,45.318,M,15.0,0762*7C
$GPVTG,261.76,T,,M,4.89,N,9.06,K,D*36
$GPZDA,203609.009,15,11,2017,00,00*51
$GPRMC,203609.00,A,5436.81439917,N,00709.00091357,E,4.891,261.758,151117,999.9000,E,D*0C
$GPGLL,5436.81439917,N,00709.00091357,E,203609.00,A,D*69
$GPGGA,203610.00,5436.81416486,N,00708.99862723,E,2,09,0.9,7.378,M,45.318,M,16.0,0762*72
$GPVTG,265.15,T,,M,5.02,N,9.31,K,D*31
$GPZDA,203610.009,15,11,2017,00,00*59
$GPRMC,203610.00,A,5436.81416486,N,00708.99862723,E,5.025,265.145,151117,999.9000,E,D*06
$GPGLL,5436.81416486,N,00708.99862723,E,203610.00,A,D*6B
$GPGGA,203611.00,5436.81411284,N,00708.99631390,E,2,09,0.9,7.088,M,45.318,M,17.0,0762*79
$GPVTG,271.53,T,,M,4.83,N,8.95,K,D*31
$GPZDA,203611.010,15,11,2017,00,00*50
$GPRMC,203611.00,A,5436.81411284,N,00708.99631390,E,4.830,271.532,151117,999.9000,E,D*0C
$GPGLL,5436.81411284,N,00708.99631390,E,203611.00,A,D*6D
$GPGGA,203612.00,5436.81412548,N,00708.99401598,E,2,09,0.9,6.960,M,45.318,M,10.8,0762*70
$GPVTG,275.45,T,,M,4.91,N,9.08,K,D*34
$GPZDA,203612.010,15,11,2017,00,00*53
$GPRMC,203612.00,A,5436.81412548,N,00708.99401598,E,4.905,275.446,151117,999.9000,E,D*05
$GPGLL,5436.81412548,N,00708.99401598,E,203612.00,A,D*65
$GPGGA,203613.00,5436.81411809,N,00708.99166924,E,2,09,0.9,7.165,M,45.318,M,11.8,0762*78
$GPVTG,269.78,T,,M,4.96,N,9.18,K,D*31
$GPZDA,203613.009,15,11,2017,00,00*5A
$GPRMC,203613.00,A,5436.81411809,N,00708.99166924,E,4.956,269.781,151117,999.9000,E,D*03
$GPGLL,5436.81411809,N,00708.99166924,E,203613.00,A,D*60
$GPGGA,203614.00,5436.81394998,N,00708.98936703,E,2,09,0.9,7.669,M,45.318,M,12.8,0762*73
$GPVTG,260.17,T,,M,4.81,N,8.90,K,D*36
$GPZDA,203614.009,15,11,2017,00,00*5D
$GPRMC,203614.00,A,5436.81394998,N,00708.98936703,E,4.807,260.172,151117,999.9000,E,D*06
$GPGLL,5436.81394998,N,00708.98936703,E,203614.00,A,D*63
$GPGGA,203615.00,5436.81366567,N,00708.98721172,E,2,09,0.9,8.276,M,45.319,M,13.8,0762*7E
$GPVTG,258.69,T,,M,4.59,N,8.50,K,D*3D
$GPZDA,203615.009,15,11,2017,00,00*5C
$GPRMC,203615.00,A,5436.81366567,N,00708.98721172,E,4.587,258.693,151117,999.9000,E,D*08
$GPGLL,5436.81366567,N,00708.98721172,E,203615.00,A,D*6B
$GPGGA,203616.00,5436.81343135,N,00708.98501921,E,2,09,0.9,8.534,M,45.319,M,14.8,0762*71
$GPVTG,262.71,T,,M,4.77,N,8.83,K,D*3F
$GPZDA,203616.009,15,11,2017,00,00*5F
$GPRMC,203616.00,A,5436.81343135,N,00708.98501921,E,4.770,262.707,151117,999.9000,E,D*0E
$GPGLL,5436.81343135,N,00708.98501921,E,203616.00,A,D*62
$GPGGA,203617.00,5436.81332476,N,00708.98264925,E,2,09,0.9,8.240,M,45.319,M,15.2,0762*7B
$GPVTG,268.32,T,,M,5.21,N,9.64,K,D*38
$GPZDA,203617.009,15,11,2017,00,00*5E
$GPRMC,203617.00,A,5436.81332476,N,00708.98264925,E,5.207,268.321,151117,999.9000,E,D*05
$GPGLL,5436.81332476,N,00708.98264925,E,203617.00,A,D*67
$GPGGA,203618.00,5436.81335077,N,00708.98017013,E,2,09,0.9,7.570,M,45.319,M,16.2,0762*74
$GPVTG,271.46,T,,M,5.31,N,9.83,K,D*3B
$GPZDA,203618.009,15,11,2017,00,00*51
$GPRMC,203618.00,A,5436.81335077,N,00708.98017013,E,5.308,271.461,151117,999.9000,E,D*07
$GPGLL,5436.81335077,N,00708.98017013,E,203618.00,A,D*60
$GPGGA,203619.00,5436.81345188,N,00708.97781378,E,2,09,0.9,7.392,M,45.319,M,17.2,0762*71
$GPVTG,275.76,T,,M,4.82,N,8.92,K,D*34
$GPZDA,203619.009,15,11,2017,00,00*50
$GPRMC,203619.00,A,5436.81345188,N,00708.97781378,E,4.819,275.757,151117,999.9000,E,D*01
$GPGLL,5436.81345188,N,00708.97781378,E,203619.00,A,D*6E
$GPGGA,203620.00,5436.81360755,N,00708.97561877,E,2,09,0.9,7.938,M,45.319,M,11.0,0762*7C
$GPVTG,273.10,T,,M,4.19,N,7.77,K,D*34
$GPZDA,203620.010,15,11,2017,00,00*52
$GPRMC,203620.00,A,5436.81360755,N,00708.97561877,E,4.194,273.100,151117,999.9000,E,D*0C
$GPGLL,5436.81360755,N,00708.97561877,E,203620.00,A,D*6D
$GPGGA,203621.00,5436.81357910,N,00708.97350344,E,2,09,0.9,8.715,M,45.319,M,12.0,0762*74
$GPVTG,262.59,T,,M,4.33,N,8.01,K,D*3F
$GPZDA,203621.009,15,11,2017,00,00*5B
$GPRMC,203621.00,A,5436.81357910,N,00708.97350344,E,4.326,262.591,151117,999.9000,E,D*0E
$GPGLL,5436.81357910,N,00708.97350344,E,203621.00,A,D*68
$GPGGA,203622.00,5436.81329347,N,00708.97119743,E,2,09,0.9,8.928,M,45.319,M,13.0,0762*7B
$GPVTG,256.20,T,,M,5.17,N,9.57,K,D*33
$GPZDA,203622.009,15,11,2017,00,00*58
$GPRMC,203622.00,A,5436.81329347,N,00708.97119743,E,5.166,256.203,151117,999.9000,E,D*0C
$GPGLL,5436.81329347,N,00708.97119743,E,203622.00,A,D*66
$GPGGA,203623.00,5436.81292660,N,00708.96872285,E,2,09,0.9,8.290,M,45.319,M,14.0,0762*7E
$GPVTG,257.67,T,,M,5.44,N,10.07,K,D*0A
$GPZDA,203623.009,15,11,2017,00,00*59
$GPRMC,203623.00,A,5436.81292660,N,00708.96872285,E,5.438,257.671,151117,999.9000,E,D*08
$GPGLL,5436.81292660,N,00708.96872285,E,203623.00,A,D*6C
$GPGGA,203624.00,5436.81271886,N,00708.96633157,E,2,09,0.9,7.404,M,45.319,M,15.0,0762*70
$GPVTG,265.93,T,,M,4.93,N,9.13,K,D*36
$GPZDA,203624.008,15,11,2017,00,00*5F
$GPRMC,203624.00,A,5436.81271886,N,00708.96633157,E,4.928,265.929,151117,999.9000,E,D*0D
$GPGLL,5436.81271886,N,00708.96633157,E,203624.00,A,D*67
$GPGGA,203625.00,5436.81279389,N,00708.96410998,E,2,09,0.9,7.045,M,45.319,M,16.0,0762*77
$GPVTG,279.24,T,,M,4.61,N,8.54,K,D*38
$GPZDA,203625.008,15,11,2017,00,00*5E
$GPRMC,203625.00,A,5436.81279389,N,00708.96410998,E,4.613,279.243,151117,999.9000,E,D*05
$GPGLL,5436.81279389,N,00708.96410998,E,203625.00,A,D*62
$GPGGA,203626.00,5436.81304866,N,00708.96197456,E,2,09,0.9,7.405,M,45.319,M,17.0,0762*71
$GPVTG,281.93,T,,M,4.61,N,8.54,K,D*33
$GPZDA,203626.008,15,11,2017,00,00*5D
$GPRMC,203626.00,A,5436.81304866,N,00708.96197456,E,4.610,281.925,151117,999.9000,E,D*0D
$GPGLL,5436.81304866,N,00708.96197456,E,203626.00,A,D*65
$GPGGA,203627.00,5436.81315219,N,00708.95973823,E,2,09,0.9,8.040,M,45.319,M,18.0,0762*78
$GPVTG,271.54,T,,M,4.76,N,8.81,K,D*39
$GPZDA,203627.008,15,11,2017,00,00*5C
$GPRMC,203627.00,A,5436.81315219,N,00708.95973823,E,4.758,271.543,151117,999.9000,E,D*0F
$GPGLL,5436.81315219,N,00708.95973823,E,203627.00,A,D*69
$GPGGA,203628.00,5436.81301477,N,00708.95741390,E,2,09,0.9,8.418,M,45.319,M,19.0,0762*78
$GPVTG,261.84,T,,M,4.99,N,9.24,K,D*3A
$GPZDA,203628.009,15,11,2017,00,00*52
$GPRMC,203628.00,A,5436.81301477,N,00708.95741390,E,4.992,261.841,151117,999.9000,E,D*01
$GPGLL,5436.81301477,N,00708.95741390,E,203628.00,A,D*61
$GPGGA,203629.00,5436.81276618,N,00708.95504994,E,2,09,0.9,8.322,M,45.319,M,20.0,0762*7A
$GPVTG,259.16,T,,M,5.15,N,9.55,K,D*39
$GPZDA,203629.008,15,11,2017,00,00*52
$GPRMC,203629.00,A,5436.81276618,N,00708.95504994,E,5.154,259.160,151117,999.9000,E,D*05
$GPGLL,5436.81276618,N,00708.95504994,E,203629.00,A,D*67
$GPGGA,203630.00,5436.81253563,N,00708.95268764,E,2,09,0.9,7.952,M,45.319,M,21.0,0762*75
$GPVTG,261.53,T,,M,5.01,N,9.28,K,D*3C
$GPZDA,203630.009,15,11,2017,00,00*5B
$GPRMC,203630.00,A,5436.81253563,N,00708.95268764,E,5.009,261.525,151117,999.9000,E,D*0E
$GPGLL,5436.81253563,N,00708.95268764,E,203630.00,A,D*6B
$GPGGA,203631.00,5436.81257352,N,00708.95036140,E,2,09,0.9,7.728,M,45.319,M,11.8,0762*75
$GPVTG,266.91,T,,M,4.57,N,8.46,K,D*3E
$GPZDA,203631.009,15,11,2017,00,00*5A
$GPRMC,203631.00,A,5436.81257352,N,00708.95036140,E,4.569,266.907,151117,999.9000,E,D*0F
$GPGLL,5436.81257352,N,00708.95036140,E,203631.00,A,D*63
$GPGGA,203632.00,5436.81260916,N,00708.94827651,E,2,09,0.9,7.979,M,45.319,M,12.8,0762*7F
$GPVTG,268.15,T,,M,4.17,N,7.72,K,D*30
$GPZDA,203632.009,15,11,2017,00,00*59
$GPRMC,203632.00,A,5436.81260916,N,00708.94827651,E,4.171,268.152,151117,999.9000,E,D*07
$GPGLL,5436.81260916,N,00708.94827651,E,203632.00,A,D*60
$GPGGA,203633.00,5436.81256806,N,00708.94613974,E,2,09,0.9,8.236,M,45.319,M,13.8,0762*74
$GPVTG,268.04,T,,M,4.64,N,8.59,K,D*32
$GPZDA,203633.009,15,11,2017,00,00*58
$GPRMC,203633.00,A,5436.81256806,N,00708.94613974,E,4.637,268.042,151117,999.9000,E,D*07
$GPGLL,5436.81256806,N,00708.94613974,E,203633.00,A,D*65
$GPGGA,203634.00,5436.81257510,N,00708.94371919,E,2,09,0.9,7.823,M,45.319,M,14.8,0762*74
$GPVTG,269.65,T,,M,5.28,N,9.79,K,D*3E
$GPZDA,203634.009,15,11,2017,00,00*5F
$GPRMC,203634.00,A,5436.81257510,N,00708.94371919,E,5.285,269.652,151117,999.9000,E,D*0B
$GPGLL,5436.81257510,N,00708.94371919,E,203634.00,A,D*63
$GPGGA,203635.00,5436.81258776,N,00708.94125261,E,2,09,0.9,7.182,M,45.319,M,15.8,0762*7C
$GPVTG,269.93,T,,M,5.08,N,9.40,K,D*3F
$GPZDA,203635.009,15,11,2017,00,00*5E
$GPRMC,203635.00,A,5436.81258776,N,00708.94125261,E,5.077,269.927,151117,999.9000,E,D*02
$GPGLL,5436.81258776,N,00708.94125261,E,203635.00,A,D*68
$GPGGA,203636.00,5436.81256524,N,00708.93900674,E,2,09,0.9,7.062,M,45.319,M,16.8,0762*70
$GPVTG,268.60,T,,M,4.60,N,8.52,K,D*3F
$GPZDA,203636.008,15,11,2017,00,00*5C
$GPRMC,203636.00,A,5436.81256524,N,00708.93900674,E,4.602,268.605,151117,999.9000,E,D*09
$GPGLL,5436.81256524,N,00708.93900674,E,203636.00,A,D*68
$GPGGA,203637.00,5436.81242406,N,00708.93684385,E,2,09,0.9,7.476,M,45.319,M,17.8,0762*7D
$GPVTG,265.13,T,,M,4.59,N,8.50,K,D*3E
$GPZDA,203637.008,15,11,2017,00,00*5D
$GPRMC,203637.00,A,5436.81242406,N,00708.93684385,E,4.589,265.135,151117,999.9000,E,D*0D
$GPGLL,5436.81242406,N,00708.93684385,E,203637.00,A,D*65
$GPGGA,203638.00,5436.81230439,N,00708.93462422,E,2,09,0.9,7.830,M,45.319,M,18.8,0762*7A
$GPVTG,266.46,T,,M,4.71,N,8.72,K,D*37
$GPZDA,203638.009,15,11,2017,00,00*53
$GPRMC,203638.00,A,5436.81230439,N,00708.93462422,E,4.708,266.464,151117,999.9000,E,D*02
$GPGLL,5436.81230439,N,00708.93462422,E,203638.00,A,D*63
$GPGGA,203639.00,5436.81221999,N,00708.93235590,E,2,09,0.9,7.908,M,45.319,M,19.8,0762*7B
$GPVTG,267.50,T,,M,4.84,N,8.97,K,D*30
$GPZDA,203639.009,15,11,2017,00,00*52
$GPRMC,203639.00,A,5436.81221999,N,00708.93235590,E,4.843,267.501,151117,999.9000,E,D*0B
$GPGLL,5436.81221999,N,00708.93235590,E,203639.00,A,D*69
$GPGGA,203640.00,5436.81212750,N,00708.92997074,E,2,09,0.9,7.660,M,45.319,M,20.8,0762*78
$GPVTG,266.19,T,,M,5.10,N,9.45,K,D*3E
$GPZDA,203640.008,15,11,2017,00,00*5D
$GPRMC,203640.00,A,5436.81212750,N,00708.92997074,E,5.101,266.195,151117,999.9000,E,D*05
$GPGLL,5436.81212750,N,00708.92997074,E,203640.00,A,D*61
$GPGGA,203641.00,5436.81203180,N,00708.92756499,E,2,09,0.9,7.417,M,45.319,M,21.8,0762*75
$GPVTG,266.29,T,,M,5.00,N,9.26,K,D*39
$GPZDA,203641.008,15,11,2017,00,00*5C
$GPRMC,203641.00,A,5436.81203180,N,00708.92756499,E,5.000,266.291,151117,999.9000,E,D*0C
$GPGLL,5436.81203180,N,00708.92756499,E,203641.00,A,D*6F
$GPGGA,203642.00,5436.81200389,N,00708.92531407,E,2,09,0.9,7.495,M,45.319,M,22.8,0762*73
$GPVTG,270.34,T,,M,4.55,N,8.43,K,D*31
$GPZDA,203642.009,15,11,2017,00,00*5E
$GPRMC,203642.00,A,5436.81200389,N,00708.92531407,E,4.552,270.342,151117,999.9000,E,D*08
$GPGLL,5436.81200389,N,00708.92531407,E,203642.00,A,D*60
$GPGGA,203643.00,5436.81207252,N,00708.92315110,E,2,09,0.9,7.834,M,45.319,M,23.8,0762*77
$GPVTG,275.10,T,,M,4.54,N,8.41,K,D*31
$GPZDA,203643.008,15,11,2017,00,00*5E
$GPRMC,203643.00,A,5436.81207252,N,00708.92315110,E,4.542,275.103,151117,999.9000,E,D*09
$GPGLL,5436.81207252,N,00708.92315110,E,203643.00,A,D*62
$GPGGA,203644.00,5436.81209339,N,00708.92090666,E,2,09,0.9,8.069,M,45.319,M,24.8,0762*72
$GPVTG,269.21,T,,M,4.81,N,8.90,K,D*3A
$GPZDA,203644.008,15,11,2017,00,00*59
$GPRMC,203644.00,A,5436.81209339,N,00708.92090666,E,4.808,269.206,151117,999.9000,E,D*0C
$GPGLL,5436.81209339,N,00708.92090666,E,203644.00,A,D*6F
$GPGGA,203645.00,5436.81191317,N,00708.91856859,E,2,09,0.9,8.152,M,45.319,M,25.8,0762*76
$GPVTG,258.89,T,,M,5.02,N,9.30,K,D*3B
$GPZDA,203645.009,15,11,2017,00,00*59
$GPRMC,203645.00,A,5436.81191317,N,00708.91856859,E,5.022,258.888,151117,999.9000,E,D*0F
$GPGLL,5436.81191317,N,00708.91856859,E,203645.00,A,D*63
$GPGGA,203646.00,5436.81161571,N,00708.91625687,E,2,09,0.9,8.156,M,45.319,M,26.8,0762*7C
$GPVTG,256.85,T,,M,4.95,N,9.16,K,D*32
$GPZDA,203646.009,15,11,2017,00,00*5A
$GPRMC,203646.00,A,5436.81161571,N,00708.91625687,E,4.946,256.849,151117,999.9000,E,D*0B
$GPGLL,5436.81161571,N,00708.91625687,E,203646.00,A,D*6E
$GPGGA,203647.00,5436.81142064,N,00708.91394769,E,2,09,0.9,7.940,M,45.319,M,24.2,0762*7B
$GPVTG,265.50,T,,M,4.89,N,9.05,K,D*35
$GPZDA,203647.009,15,11,2017,00,00*5B
$GPRMC,203647.00,A,5436.81142064,N,00708.91394769,E,4.886,265.502,151117,999.9000,E,D*0B
$GPGLL,5436.81142064,N,00708.91394769,E,203647.00,A,D*61
$GPGGA,203648.00,5436.81144869,N,00708.91158018,E,2,09,0.9,7.589,M,45.319,M,25.2,0762*7C
$GPVTG,275.91,T,,M,5.04,N,9.33,K,D*38
$GPZDA,203648.010,15,11,2017,00,00*5C
$GPRMC,203648.00,A,5436.81144869,N,00708.91158018,E,5.039,275.910,151117,999.9000,E,D*07
$GPGLL,5436.81144869,N,00708.91158018,E,203648.00,A,D*6E
$GPGGA,203649.00,5436.81159895,N,00708.90926301,E,2,09,0.9,7.546,M,45.319,M,26.2,0762*79
$GPVTG,277.27,T,,M,4.80,N,8.89,K,D*3A
$GPZDA,203649.009,15,11,2017,00,00*55
$GPRMC,203649.00,A,5436.81159895,N,00708.90926301,E,4.799,277.266,151117,999.9000,E,D*06
$GPGLL,5436.81159895,N,00708.90926301,E,203649.00,A,D*6B
$GPGGA,203650.00,5436.81171991,N,00708.90701086,E,2,09,0.9,7.864,M,45.319,M,14.0,0762*77
$GPVTG,268.39,T,,M,4.32,N,8.00,K,D*33
$GPZDA,203650.010,15,11,2017,00,00*55
$GPRMC,203650.00,A,5436.81171991,N,00708.90701086,E,4.321,268.391,151117,999.9000,E,D*06
$GPGLL,5436.81171991,N,00708.90701086,E,203650.00,A,D*6B
$GPGGA,203651.00,5436.81157840,N,00708.90481959,E,2,09,0.9,8.192,M,45.319,M,15.0,0762*71
$GPVTG,260.71,T,,M,4.68,N,8.67,K,D*39
$GPZDA,203651.009,15,11,2017,00,00*5C
$GPRMC,203651.00,A,5436.81157840,N,00708.90481959,E,4.682,260.710,151117,999.9000,E,D*07
$GPGLL,5436.81157840,N,00708.90481959,E,203651.00,A,D*63
$GPGGA,203652.00,5436.81140353,N,00708.90233374,E,2,09,0.9,7.728,M,45.319,M,16.0,0762*7C
$GPVTG,264.91,T,,M,5.51,N,10.20,K,D*02
$GPZDA,203652.009,15,11,2017,00,00*5F
$GPRMC,203652.00,A,5436.81140353,N,00708.90233374,E,5.508,264.905,151117,999.9000,E,D*0F
$GPGLL,5436.81140353,N,00708.90233374,E,203652.00,A,D*65
$GPGGA,203653.00,5436.81132702,N,00708.89983960,E,2,09,0.9,6.958,M,45.319,M,17.0,0762*76
$GPVTG,268.92,T,,M,5.12,N,9.49,K,D*3D
$GPZDA,203653.010,15,11,2017,00,00*56
$GPRMC,203653.00,A,5436.81132702,N,00708.89983960,E,5.122,268.923,151117,999.9000,E,D*08
$GPGLL,5436.81132702,N,00708.89983960,E,203653.00,A,D*66
$GPGGA,203654.00,5436.81127814,N,00708.89764691,E,2,09,0.9,6.915,M,45.319,M,18.0,0762*7D
$GPVTG,267.51,T,,M,4.33,N,8.02,K,D*31
$GPZDA,203654.009,15,11,2017,00,00*59
$GPRMC,203654.00,A,5436.81127814,N,00708.89764691,E,4.332,267.508,151117,999.9000,E,D*0D
$GPGLL,5436.81127814,N,00708.89764691,E,203654.00,A,D*6B
$GPGGA,203655.00,5436.81121689,N,00708.89552788,E,2,09,0.9,7.533,M,45.319,M,14.8,0762*73
$GPVTG,266.26,T,,M,4.48,N,8.29,K,D*35
$GPZDA,203655.009,15,11,2017,00,00*58
$GPRMC,203655.00,A,5436.81121689,N,00708.89552788,E,4.475,266.260,151117,999.9000,E,D*02
$GPGLL,5436.81121689,N,00708.89552788,E,203655.00,A,D*68
$GPGGA,203656.00,5436.81108604,N,00708.89322893,E,2,09,0.9,7.955,M,45.319,M,15.8,0762*77
$GPVTG,263.42,T,,M,4.98,N,9.22,K,D*35
$GPZDA,203656.010,15,11,2017,00,00*53
$GPRMC,203656.00,A,5436.81108604,N,00708.89322893,E,4.976,263.418,151117,999.9000,E,D*09
$GPGLL,5436.81108604,N,00708.89322893,E,203656.00,A,D*61
$GPGGA,203657.00,5436.81094822,N,00708.89090119,E,2,09,0.9,7.859,M,45.319,M,16.8,0762*77
$GPVTG,265.31,T,,M,4.86,N,9.00,K,D*38
$GPZDA,203657.009,15,11,2017,00,00*5A
$GPRMC,203657.00,A,5436.81094822,N,00708.89090119,E,4.862,265.312,151117,999.9000,E,D*08
$GPGLL,5436.81094822,N,00708.89090119,E,203657.00,A,D*6F
$GPGGA,203658.00,5436.81098210,N,00708.88863784,E,2,09,0.9,7.450,M,45.319,M,11.2,0762*70
$GPVTG,271.08,T,,M,4.82,N,8.92,K,D*39
$GPZDA,203658.009,15,11,2017,00,00*55
$GPRMC,203658.00,A,5436.81098210,N,00708.88863784,E,4.815,271.084,151117,999.9000,E,D*0E
$GPGLL,5436.81098210,N,00708.88863784,E,203658.00,A,D*60
$GPGGA,203659.00,5436.81104049,N,00708.88631410,E,2,09,0.9,7.117,M,45.319,M,12.2,0762*79
$GPVTG,270.50,T,,M,4.96,N,9.18,K,D*33
$GPZDA,203659.010,15,11,2017,00,00*5C
$GPRMC,203659.00,A,5436.81104049,N,00708.88631410,E,4.957,270.500,151117,999.9000,E,D*0D
$GPGLL,5436.81104049,N,00708.88631410,E,203659.00,A,D*6C
$GPGGA,203700.00,5436.81099517,N,00708.88391502,E,2,09,0.9,6.970,M,45.319,M,13.2,0762*7B
$GPVTG,266.01,T,,M,5.06,N,9.37,K,D*35
$GPZDA,203700.009,15,11,2017,00,00*59
$GPRMC,203700.00,A,5436.81099517,N,00708.88391502,E,5.058,266.009,151117,999.9000,E,D*0A
$GPGLL,5436.81099517,N,00708.88391502,E,203700.00,A,D*67
$GPGGA,203701.00,5436.81087883,N,00708.88168556,E,2,09,0.9,7.202,M,45.319,M,13.0,0762*7D
$GPVTG,265.98,T,,M,4.60,N,8.52,K,D*35
$GPZDA,203701.009,15,11,2017,00,00*58
$GPRMC,203701.00,A,5436.81087883,N,00708.88168556,E,4.598,265.977,151117,999.9000,E,D*0A
$GPGLL,5436.81087883,N,00708.88168556,E,203701.00,A,D*6C
$GPGGA,203702.00,5436.81083108,N,00708.87963856,E,2,09,0.9,7.655,M,45.319,M,14.0,0762*70
$GPVTG,269.12,T,,M,4.21,N,7.79,K,D*38
$GPZDA,203702.009,15,11,2017,00,00*5B
$GPRMC,203702.00,A,5436.81083108,N,00708.87963856,E,4.208,269.121,151117,999.9000,E,D*0F
$GPGLL,5436.81083108,N,00708.87963856,E,203702.00,A,D*60
$GPGGA,203703.00,5436.81079748,N,00708.87747746,E,2,09,0.9,7.980,M,45.319,M,10.8,0762*7B
$GPVTG,268.71,T,,M,4.81,N,8.90,K,D*3E
$GPZDA,203703.008,15,11,2017,00,00*5B
$GPRMC,203703.00,A,5436.81079748,N,00708.87747746,E,4.807,268.708,151117,999.9000,E,D*06
$GPGLL,5436.81079748,N,00708.87747746,E,203703.00,A,D*60
$GPGGA,203704.00,5436.81069521,N,00708.87498497,E,2,09,0.9,7.846,M,45.319,M,11.8,0762*74
$GPVTG,265.54,T,,M,5.50,N,10.20,K,D*0B
$GPZDA,203704.008,15,11,2017,00,00*5C
$GPRMC,203704.00,A,5436.81069521,N,00708.87498497,E,5.505,265.541,151117,999.9000,E,D*0F
$GPGLL,5436.81069521,N,00708.87498497,E,203704.00,A,D*65
$GPGGA,203705.00,5436.81057545,N,00708.87247545,E,2,09,0.9,7.530,M,45.319,M,12.8,0762*7F
$GPVTG,265.14,T,,M,5.11,N,9.46,K,D*32
$GPZDA,203705.008,15,11,2017,00,00*5D
$GPRMC,203705.00,A,5436.81057545,N,00708.87247545,E,5.106,265.139,151117,999.9000,E,D*07
$GPGLL,5436.81057545,N,00708.87247545,E,203705.00,A,D*61
$GPGGA,203706.00,5436.81048906,N,00708.87033864,E,2,09,0.9,7.587,M,45.319,M,13.8,0762*7B
$GPVTG,267.68,T,,M,4.21,N,7.80,K,D*3D
$GPZDA,203706.009,15,11,2017,00,00*5F
$GPRMC,203706.00,A,5436.81048906,N,00708.87033864,E,4.214,267.675,151117,999.9000,E,D*02
$GPGLL,5436.81048906,N,00708.87033864,E,203706.00,A,D*68
$GPGGA,203707.00,5436.81046837,N,00708.86826353,E,2,09,0.9,7.840,M,45.319,M,14.8,0762*74
$GPVTG,270.85,T,,M,4.48,N,8.29,K,D*3B
$GPZDA,203707.008,15,11,2017,00,00*5F
$GPRMC,203707.00,A,5436.81046837,N,00708.86826353,E,4.475,270.847,151117,999.9000,E,D*04
$GPGLL,5436.81046837,N,00708.86826353,E,203707.00,A,D*66
$GPGGA,203708.00,5436.81047849,N,00708.86591818,E,2,09,0.9,7.913,M,45.319,M,15.8,0762*70
$GPVTG,271.06,T,,M,5.16,N,9.56,K,D*32
$GPZDA,203708.009,15,11,2017,00,00*51
$GPRMC,203708.00,A,5436.81047849,N,00708.86591818,E,5.163,271.065,151117,999.9000,E,D*0C
$GPGLL,5436.81047849,N,00708.86591818,E,203708.00,A,D*64
$GPGGA,203709.00,5436.81049634,N,00708.86343120,E,2,09,0.9,7.791,M,45.319,M,16.8,0762*77
$GPVTG,268.38,T,,M,5.16,N,9.57,K,D*36
$GPZDA,203709.009,15,11,2017,00,00*50
$GPRMC,203709.00,A,5436.81049634,N,00708.86343120,E,5.165,268.375,151117,999.9000,E,D*00
$GPGLL,5436.81049634,N,00708.86343120,E,203709.00,A,D*64
$GPGGA,203710.00,5436.81044118,N,00708.86111569,E,2,09,0.9,7.840,M,45.319,M,17.8,0762*75
$GPVTG,266.10,T,,M,4.72,N,8.74,K,D*31
$GPZDA,203710.009,15,11,2017,00,00*58
$GPRMC,203710.00,A,5436.81044118,N,00708.86111569,E,4.717,266.099,151117,999.9000,E,D*0D
$GPGLL,5436.81044118,N,00708.86111569,E,203710.00,A,D*64
$GPGGA,203711.00,5436.81039571,N,00708.85884842,E,2,09,0.9,7.992,M,45.319,M,18.8,0762*76
$GPVTG,267.73,T,,M,4.73,N,8.77,K,D*37
$GPZDA,203711.008,15,11,2017,00,00*58
$GPRMC,203711.00,A,5436.81039571,N,00708.85884842,E,4.734,267.732,151117,999.9000,E,D*09
$GPGLL,5436.81039571,N,00708.85884842,E,203711.00,A,D*66
$GPGGA,203712.00,5436.81040692,N,00708.85644091,E,2,09,0.9,7.875,M,45.319,M,19.8,0762*78
$GPVTG,269.61,T,,M,5.04,N,9.33,K,D*3A
$GPZDA,203712.009,15,11,2017,00,00*5A
$GPRMC,203712.00,A,5436.81040692,N,00708.85644091,E,5.036,269.609,151117,999.9000,E,D*0D
$GPGLL,5436.81040692,N,00708.85644091,E,203712.00,A,D*61
$GPGGA,203713.00,5436.81041015,N,00708.85404396,E,2,09,0.9,7.667,M,45.319,M,20.8,0762*74
$GPVTG,269.73,T,,M,4.97,N,9.21,K,D*31
$GPZDA,203713.009,15,11,2017,00,00*5B
$GPRMC,203713.00,A,5436.81041015,N,00708.85404396,E,4.973,269.730,151117,999.9000,E,D*04
$GPGLL,5436.81041015,N,00708.85404396,E,203713.00,A,D*6A
$GPGGA,203714.00,5436.81037978,N,00708.85176091,E,2,09,0.9,7.623,M,45.319,M,21.8,0762*75
$GPVTG,268.92,T,,M,4.72,N,8.75,K,D*34
$GPZDA,203714.009,15,11,2017,00,00*5C
$GPRMC,203714.00,A,5436.81037978,N,00708.85176091,E,4.723,268.918,151117,999.9000,E,D*0A
$GPGLL,5436.81037978,N,00708.85176091,E,203714.00,A,D*6A
$GPGGA,203715.00,5436.81037193,N,00708.84945533,E,2,09,0.9,7.670,M,45.319,M,22.8,0762*78
$GPVTG,270.86,T,,M,4.96,N,9.19,K,D*39
$GPZDA,203715.009,15,11,2017,00,00*5D
$GPRMC,203715.00,A,5436.81037193,N,00708.84945533,E,4.960,270.856,151117,999.9000,E,D*09
$GPGLL,5436.81037193,N,00708.84945533,E,203715.00,A,D*62
$GPGGA,203716.00,5436.81036782,N,00708.84704245,E,2,09,0.9,7.646,M,45.319,M,23.8,0762*75
$GPVTG,269.82,T,,M,5.16,N,9.55,K,D*34
$GPZDA,203716.008,15,11,2017,00,00*5F
$GPRMC,203716.00,A,5436.81036782,N,00708.84704245,E,5.159,269.815,151117,999.9000,E,D*0C
$GPGLL,5436.81036782,N,00708.84704245,E,203716.00,A,D*6B
$GPGGA,203717.00,5436.81032599,N,00708.84463625,E,2,09,0.9,7.625,M,45.319,M,24.8,0762*7A
$GPVTG,266.19,T,,M,5.02,N,9.30,K,D*3F
$GPZDA,203717.009,15,11,2017,00,00*5F
$GPRMC,203717.00,A,5436.81032599,N,00708.84463625,E,5.023,266.189,151117,999.9000,E,D*0E
$GPGLL,5436.81032599,N,00708.84463625,E,203717.00,A,D*66
$GPGGA,203718.00,5436.81021093,N,00708.84234492,E,2,09,0.9,7.848,M,45.319,M,25.8,0762*76
$GPVTG,263.58,T,,M,4.74,N,8.77,K,D*3D
$GPZDA,203718.009,15,11,2017,00,00*50
$GPRMC,203718.00,A,5436.81021093,N,00708.84234492,E,4.737,263.575,151117,999.9000,E,D*07
$GPGLL,5436.81021093,N,00708.84234492,E,203718.00,A,D*6E
$GPGGA,203719.00,5436.81007327,N,00708.84009777,E,2,09,0.9,8.157,M,45.319,M,26.8,0762*70
$GPVTG,263.89,T,,M,4.78,N,8.85,K,D*30
$GPZDA,203719.009,15,11,2017,00,00*51
$GPRMC,203719.00,A,5436.81007327,N,00708.84009777,E,4.779,263.887,151117,999.9000,E,D*00
$GPGLL,5436.81007327,N,00708.84009777,E,203719.00,A,D*63
$GPGGA,203720.00,5436.80984763,N,00708.83767002,E,2,09,0.9,8.033,M,45.319,M,12.2,0762*7E
$GPVTG,266.12,T,,M,5.12,N,9.47,K,D*35
$GPZDA,203720.009,15,11,2017,00,00*5B
$GPRMC,203720.00,A,5436.80984763,N,00708.83767002,E,5.116,266.121,151117,999.9000,E,D*0E
$GPGLL,5436.80984763,N,00708.83767002,E,203720.00,A,D*63
$GPGGA,203721.00,5436.80977912,N,00708.83516898,E,2,09,0.9,7.602,M,45.319,M,13.2,0762*7E
$GPVTG,271.12,T,,M,5.31,N,9.84,K,D*3D
$GPZDA,203721.008,15,11,2017,00,00*5B
$GPRMC,203721.00,A,5436.80977912,N,00708.83516898,E,5.312,271.117,151117,999.9000,E,D*01
$GPGLL,5436.80977912,N,00708.83516898,E,203721.00,A,D*69
$GPGGA,203722.00,5436.80987003,N,00708.83263270,E,2,09,0.9,7.093,M,45.319,M,13.0,0762*7E
$GPVTG,275.27,T,,M,5.27,N,9.76,K,D*35
$GPZDA,203722.009,15,11,2017,00,00*59
$GPRMC,203722.00,A,5436.80987003,N,00708.83263270,E,5.268,275.266,151117,999.9000,E,D*00
$GPGLL,5436.80987003,N,00708.83263270,E,203722.00,A,D*65
$GPGGA,203723.00,5436.80998355,N,00708.83021529,E,2,09,0.9,7.015,M,45.319,M,14.0,0762*77
$GPVTG,274.12,T,,M,4.90,N,9.07,K,D*39
$GPZDA,203723.008,15,11,2017,00,00*59
$GPRMC,203723.00,A,5436.80998355,N,00708.83021529,E,4.896,274.118,151117,999.9000,E,D*01
$GPGLL,5436.80998355,N,00708.83021529,E,203723.00,A,D*65
$GPGGA,203724.00,5436.80999939,N,00708.82790551,E,2,09,0.9,7.428,M,45.319,M,15.0,0762*79
$GPVTG,268.72,T,,M,4.78,N,8.86,K,D*3C
$GPZDA,203724.009,15,11,2017,00,00*5F
$GPRMC,203724.00,A,5436.80999939,N,00708.82790551,E,4.783,268.722,151117,999.9000,E,D*0D
$GPGLL,5436.80999939,N,00708.82790551,E,203724.00,A,D*60
$GPGGA,203725.00,5436.80993124,N,00708.82551026,E,2,09,0.9,7.810,M,45.319,M,11.8,0762*77
$GPVTG,265.28,T,,M,5.06,N,9.37,K,D*3D
$GPZDA,203725.009,15,11,2017,00,00*5E
$GPRMC,203725.00,A,5436.80993124,N,00708.82551026,E,5.057,265.275,151117,999.9000,E,D*0D
$GPGLL,5436.80993124,N,00708.82551026,E,203725.00,A,D*65
$GPGGA,203726.00,5436.80978116,N,00708.82299811,E,2,09,0.9,7.801,M,45.319,M,12.8,0762*7C
$GPVTG,263.00,T,,M,5.39,N,9.97,K,D*37
$GPZDA,203726.009,15,11,2017,00,00*5D
$GPRMC,203726.00,A,5436.80978116,N,00708.82299811,E,5.386,263.005,151117,999.9000,E,D*09
$GPGLL,5436.80978116,N,00708.82299811,E,203726.00,A,D*6D
$GPGGA,203727.00,5436.80963322,N,00708.82042200,E,2,09,0.9,7.424,M,45.319,M,13.8,0762*76
$GPVTG,265.27,T,,M,5.39,N,9.99,K,D*3A
$GPZDA,203727.009,15,11,2017,00,00*5C
$GPRMC,203727.00,A,5436.80963322,N,00708.82042200,E,5.392,265.268,151117,999.9000,E,D*03
$GPGLL,5436.80963322,N,00708.82042200,E,203727.00,A,D*6D
$GPGGA,203728.00,5436.80961150,N,00708.81792516,E,2,09,0.9,7.112,M,45.319,M,14.8,0762*72
$GPVTG,271.15,T,,M,5.14,N,9.52,K,D*36
$GPZDA,203728.010,15,11,2017,00,00*5B
$GPRMC,203728.00,A,5436.80961150,N,00708.81792516,E,5.139,271.154,151117,999.9000,E,D*0A
$GPGLL,5436.80961150,N,00708.81792516,E,203728.00,A,D*6E
$GPGGA,203729.00,5436.80966886,N,00708.81553044,E,2,09,0.9,7.200,M,45.319,M,15.8,0762*7A
$GPVTG,273.50,T,,M,4.94,N,9.15,K,D*3F
$GPZDA,203729.009,15,11,2017,00,00*52
$GPRMC,203729.00,A,5436.80966886,N,00708.81553044,E,4.939,273.497,151117,999.9000,E,D*02
$GPGLL,5436.80966886,N,00708.81553044,E,203729.00,A,D*67
$GPGGA,203730.00,5436.80971716,N,00708.81316126,E,2,09,0.9,7.511,M,45.319,M,16.8,0762*74
$GPVTG,271.08,T,,M,4.94,N,9.15,K,D*30
$GPZDA,203730.009,15,11,2017,00,00*5A
$GPRMC,203730.00,A,5436.80971716,N,00708.81316126,E,4.940,271.076,151117,999.9000,E,D*0F
$GPGLL,5436.80971716,N,00708.81316126,E,203730.00,A,D*6D
$GPGGA,203731.00,5436.80967282,N,00708.81070697,E,2,09,0.9,7.637,M,45.319,M,17.8,0762*72
$GPVTG,265.42,T,,M,5.21,N,9.65,K,D*33
$GPZDA,203731.009,15,11,2017,00,00*5B
$GPRMC,203731.00,A,5436.80967282,N,00708.81070697,E,5.213,265.416,151117,999.9000,E,D*04
$GPGLL,5436.80967282,N,00708.81070697,E,203731.00,A,D*6D
$GPGGA,203732.00,5436.80954861,N,00708.80820519,E,2,09,0.9,7.505,M,45.319,M,18.8,0762*72
$GPVTG,264.37,T,,M,5.28,N,9.78,K,D*35
$GPZDA,203732.009,15,11,2017,00,00*58
$GPRMC,203732.00,A,5436.80954861,N,00708.80820519,E,5.279,264.369,151117,999.9000,E,D*0B
$GPGLL,5436.80954861,N,00708.80820519,E,203732.00,A,D*60
$GPGGA,203733.00,5436.80938859,N,00708.80575883,E,2,09,0.9,7.370,M,45.319,M,19.8,0762*74
$GPVTG,267.48,T,,M,5.22,N,9.68,K,D*35
$GPZDA,203733.010,15,11,2017,00,00*51
$GPRMC,203733.00,A,5436.80938859,N,00708.80575883,E,5.224,267.477,151117,999.9000,E,D*0B
$GPGLL,5436.80938859,N,00708.80575883,E,203733.00,A,D*63
$GPGGA,203734.00,5436.80931896,N,00708.80327709,E,2,09,0.9,7.289,M,45.319,M,20.8,0762*78
$GPVTG,270.69,T,,M,5.23,N,9.68,K,D*31
$GPZDA,203734.010,15,11,2017,00,00*56
$GPRMC,203734.00,A,5436.80931896,N,00708.80327709,E,5.226,270.693,151117,999.9000,E,D*06
$GPGLL,5436.80931896,N,00708.80327709,E,203734.00,A,D*62
$GPGGA,203735.00,5436.80931600,N,00708.80081853,E,2,09,0.9,7.353,M,45.319,M,21.8,0762*70
$GPVTG,271.24,T,,M,5.10,N,9.44,K,D*37
$GPZDA,203735.010,15,11,2017,00,00*57
$GPRMC,203735.00,A,5436.80931600,N,00708.80081853,E,5.100,271.239,151117,999.9000,E,D*0B
$GPGLL,5436.80931600,N,00708.80081853,E,203735.00,A,D*6D
$GPGGA,203736.00,5436.80935024,N,00708.79838221,E,2,09,0.9,7.499,M,45.319,M,22.8,0762*76
$GPVTG,270.08,T,,M,5.04,N,9.34,K,D*3A
$GPZDA,203736.009,15,11,2017,00,00*5C
$GPRMC,203736.00,A,5436.80935024,N,00708.79838221,E,5.045,270.082,151117,999.9000,E,D*0C
$GPGLL,5436.80935024,N,00708.79838221,E,203736.00,A,D*69
$GPGGA,203737.00,5436.80933203,N,00708.79587660,E,2,09,0.9,7.555,M,45.319,M,23.8,0762*7E
$GPVTG,268.88,T,,M,5.34,N,9.89,K,D*3E
$GPZDA,203737.009,15,11,2017,00,00*5D
$GPRMC,203737.00,A,5436.80933203,N,00708.79587660,E,5.342,268.880,151117,999.9000,E,D*03
$GPGLL,5436.80933203,N,00708.79587660,E,203737.00,A,D*61
$GPGGA,203738.00,5436.80927559,N,00708.79323956,E,2,09,0.9,7.450,M,45.319,M,24.8,0762*7D
$GPVTG,267.61,T,,M,5.61,N,10.40,K,D*0B
$GPZDA,203738.009,15,11,2017,00,00*52
$GPRMC,203738.00,A,5436.80927559,N,00708.79323956,E,5.614,267.611,151117,999.9000,E,D*0C
$GPGLL,5436.80927559,N,00708.79323956,E,203738.00,A,D*61
$GPGGA,203739.00,5436.80919522,N,00708.79064714,E,2,09,0.9,7.357,M,45.319,M,25.8,0762*74
$GPVTG,266.97,T,,M,5.31,N,9.83,K,D*31
$GPZDA,203739.009,15,11,2017,00,00*53
$GPRMC,203739.00,A,5436.80919522,N,00708.79064714,E,5.307,266.966,151117,999.9000,E,D*0D
$GPGLL,5436.80919522,N,00708.79064714,E,203739.00,A,D*69
$GPGGA,203740.00,5436.80916846,N,00708.78821765,E,2,09,0.9,7.459,M,45.319,M,26.8,0762*7E
$GPVTG,270.95,T,,M,4.99,N,9.24,K,D*3A
$GPZDA,203740.009,15,11,2017,00,00*5D
$GPRMC,203740.00,A,5436.80916846,N,00708.78821765,E,4.990,270.947,151117,999.9000,E,D*0C
$GPGLL,5436.80916846,N,00708.78821765,E,203740.00,A,D*69
$GPGGA,203741.00,5436.80924055,N,00708.78572212,E,2,09,0.9,7.457,M,45.319,M,24.2,0762*7C
$GPVTG,271.83,T,,M,5.50,N,10.18,K,D*0F
$GPZDA,203741.009,15,11,2017,00,00*5C
$GPRMC,203741.00,A,5436.80924055,N,00708.78572212,E,5.498,271.834,151117,999.9000,E,D*08
$GPGLL,5436.80924055,N,00708.78572212,E,203741.00,A,D*6D
$GPGGA,203742.00,5436.80928400,N,00708.78306340,E,2,09,0.9,7.358,M,45.319,M,25.2,0762*7D
$GPVTG,269.35,T,,M,5.69,N,10.53,K,D*0E
$GPZDA,203742.009,15,11,2017,00,00*5F
$GPRMC,203742.00,A,5436.80928400,N,00708.78306340,E,5.687,269.348,151117,999.9000,E,D*05
$GPGLL,5436.80928400,N,00708.78306340,E,203742.00,A,D*65
$GPGGA,203743.00,5436.80926325,N,00708.78052407,E,2,09,0.9,7.499,M,45.319,M,26.2,0762*7D
$GPVTG,268.47,T,,M,5.16,N,9.55,K,D*3C
$GPZDA,203743.008,15,11,2017,00,00*5F
$GPRMC,203743.00,A,5436.80926325,N,00708.78052407,E,5.159,268.474,151117,999.9000,E,D*01
$GPGLL,5436.80926325,N,00708.78052407,E,203743.00,A,D*6C
$GPGGA,203744.00,5436.80915964,N,00708.77820898,E,2,09,0.9,8.003,M,45.319,M,11.0,0762*73
$GPVTG,265.70,T,,M,4.89,N,9.06,K,D*34
$GPZDA,203744.008,15,11,2017,00,00*58
$GPRMC,203744.00,A,5436.80915964,N,00708.77820898,E,4.895,265.702,151117,999.9000,E,D*06
$GPGLL,5436.80915964,N,00708.77820898,E,203744.00,A,D*6C
$GPGGA,203745.00,5436.80899876,N,00708.77582908,E,2,09,0.9,8.430,M,45.319,M,12.0,0762*7F
$GPVTG,262.89,T,,M,5.13,N,9.49,K,D*3C
$GPZDA,203745.008,15,11,2017,00,00*59
$GPRMC,203745.00,A,5436.80899876,N,00708.77582908,E,5.126,262.893,151117,999.9000,E,D*0D
$GPGLL,5436.80899876,N,00708.77582908,E,203745.00,A,D*67
$GPGGA,203746.00,5436.80883203,N,00708.77326790,E,2,09,0.9,8.309,M,45.319,M,13.0,0762*74
$GPVTG,265.25,T,,M,5.62,N,10.40,K,D*0A
$GPZDA,203746.008,15,11,2017,00,00*5A
$GPRMC,203746.00,A,5436.80883203,N,00708.77326790,E,5.617,265.251,151117,999.9000,E,D*0C
$GPGLL,5436.80883203,N,00708.77326790,E,203746.00,A,D*60
$GPGGA,203747.00,5436.80879044,N,00708.77052212,E,2,09,0.9,7.612,M,45.320,M,14.0,0762*73
$GPVTG,271.42,T,,M,5.85,N,10.84,K,D*0F
$GPZDA,203747.008,15,11,2017,00,00*5B
$GPRMC,203747.00,A,5436.80879044,N,00708.77052212,E,5.851,271.416,151117,999.9000,E,D*0A
$GPGLL,5436.80879044,N,00708.77052212,E,203747.00,A,D*6A
$GPGGA,203748.00,5436.80890488,N,00708.76794493,E,2,09,0.9,7.225,M,45.320,M,15.0,0762*7D
$GPVTG,276.71,T,,M,5.25,N,9.72,K,D*33
$GPZDA,203748.008,15,11,2017,00,00*54
$GPRMC,203748.00,A,5436.80890488,N,00708.76794493,E,5.251,276.708,151117,999.9000,E,D*04
$GPGLL,5436.80890488,N,00708.76794493,E,203748.00,A,D*65
$GPGGA,203749.00,5436.80913880,N,00708.76548517,E,2,09,0.9,7.447,M,45.320,M,14.8,0762*77
$GPVTG,274.88,T,,M,5.01,N,9.28,K,D*3E
$GPZDA,203749.008,15,11,2017,00,00*55
$GPRMC,203749.00,A,5436.80913880,N,00708.76548517,E,5.013,274.883,151117,999.9000,E,D*0F
$GPGLL,5436.80913880,N,00708.76548517,E,203749.00,A,D*64
$GPGGA,203750.00,5436.80927236,N,00708.76297913,E,2,09,0.9,7.793,M,45.320,M,15.8,0762*79
$GPVTG,269.14,T,,M,5.28,N,9.78,K,D*39
$GPZDA,203750.009,15,11,2017,00,00*5C
$GPRMC,203750.00,A,5436.80927236,N,00708.76297913,E,5.280,269.139,151117,999.9000,E,D*06
$GPGLL,5436.80927236,N,00708.76297913,E,203750.00,A,D*61
$GPGGA,203751.00,5436.80924812,N,00708.76035868,E,2,09,0.9,7.813,M,45.320,M,16.8,0762*74
$GPVTG,267.16,T,,M,5.59,N,10.35,K,D*02
$GPZDA,203751.009,15,11,2017,00,00*5D
$GPRMC,203751.00,A,5436.80924812,N,00708.76035868,E,5.589,267.162,151117,999.9000,E,D*01
$GPGLL,5436.80924812,N,00708.76035868,E,203751.00,A,D*68
$GPGGA,203752.00,5436.80920026,N,00708.75769000,E,2,09,0.9,7.501,M,45.320,M,11.2,0762*74
$GPVTG,267.35,T,,M,5.62,N,10.40,K,D*09
$GPZDA,203752.008,15,11,2017,00,00*5F
$GPRMC,203752.00,A,5436.80920026,N,00708.75769000,E,5.618,267.349,151117,999.9000,E,D*02
$GPGLL,5436.80920026,N,00708.75769000,E,203752.00,A,D*6B
$GPGGA,203753.00,5436.80912198,N,00708.75507178,E,2,09,0.9,7.254,M,45.320,M,12.2,0762*70
$GPVTG,265.69,T,,M,5.45,N,10.10,K,D*02
$GPZDA,203753.009,15,11,2017,00,00*5F
$GPRMC,203753.00,A,5436.80912198,N,00708.75507178,E,5.455,265.690,151117,999.9000,E,D*0A
$GPGLL,5436.80912198,N,00708.75507178,E,203753.00,A,D*6B
$GPGGA,203754.00,5436.80900822,N,00708.75253039,E,2,09,0.9,7.297,M,45.320,M,13.2,0762*70
$GPVTG,264.66,T,,M,5.26,N,9.75,K,D*32
$GPZDA,203754.009,15,11,2017,00,00*58
$GPRMC,203754.00,A,5436.80900822,N,00708.75253039,E,5.264,264.661,151117,999.9000,E,D*0F
$GPGLL,5436.80900822,N,00708.75253039,E,203754.00,A,D*65
$GPGGA,203755.00,5436.80895626,N,00708.75005856,E,2,09,0.9,7.457,M,45.320,M,14.2,0762*7B
$GPVTG,270.24,T,,M,5.11,N,9.46,K,D*35
$GPZDA,203755.009,15,11,2017,00,00*59
$GPRMC,203755.00,A,5436.80895626,N,00708.75005856,E,5.107,270.241,151117,999.9000,E,D*0C
$GPGLL,5436.80895626,N,00708.75005856,E,203755.00,A,D*63
$GPGGA,203756.00,5436.80905082,N,00708.74748501,E,2,09,0.9,7.298,M,45.320,M,15.2,0762*7C
$GPVTG,275.99,T,,M,5.61,N,10.39,K,D*01
$GPZDA,203756.009,15,11,2017,00,00*5A
$GPRMC,203756.00,A,5436.80905082,N,00708.74748501,E,5.612,275.992,151117,999.9000,E,D*0C
$GPGLL,5436.80905082,N,00708.74748501,E,203756.00,A,D*60
$GPGGA,203757.00,5436.80915611,N,00708.74481202,E,2,09,0.9,6.957,M,45.320,M,16.2,0762*78
$GPVTG,276.69,T,,M,5.75,N,10.64,K,D*00
$GPZDA,203757.008,15,11,2017,00,00*5A
$GPRMC,203757.00,A,5436.80915611,N,00708.74481202,E,5.747,276.688,151117,999.9000,E,D*04
$GPGLL,5436.80915611,N,00708.74481202,E,203757.00,A,D*6E
$GPGGA,203758.00,5436.80902966,N,00708.74237061,E,2,09,0.9,7.297,M,45.320,M,17.2,0762*75
$GPVTG,268.52,T,,M,5.03,N,9.31,K,D*3E
$GPZDA,203758.009,15,11,2017,00,00*54
$GPRMC,203758.00,A,5436.80902966,N,00708.74237061,E,5.026,268.522,151117,999.9000,E,D*02
$GPGLL,5436.80902966,N,00708.74237061,E,203758.00,A,D*64
$GPGGA,203759.00,5436.80878833,N,00708.74004342,E,2,09,0.9,8.063,M,45.320,M,18.2,0762*70
$GPVTG,257.98,T,,M,4.94,N,9.15,K,D*3D
$GPZDA,203759.009,15,11,2017,00,00*55
$GPRMC,203759.00,A,5436.80878833,N,00708.74004342,E,4.941,257.977,151117,999.9000,E,D*07
$GPGLL,5436.80878833,N,00708.74004342,E,203759.00,A,D*68
$GPGGA,203800.00,5436.80850200,N,00708.73755571,E,2,09,0.9,8.509,M,45.320,M,19.2,0762*79
$GPVTG,261.57,T,,M,5.52,N,10.22,K,D*0C
$GPZDA,203800.009,15,11,2017,00,00*56
$GPRMC,203800.00,A,5436.80850200,N,00708.73755571,E,5.519,261.572,151117,999.9000,E,D*0A
$GPGLL,5436.80850200,N,00708.73755571,E,203800.00,A,D*69
$GPGGA,203801.00,5436.80839424,N,00708.73489465,E,2,09,0.9,8.148,M,45.320,M,20.2,0762*7A
$GPVTG,270.38,T,,M,5.67,N,10.50,K,D*06
$GPZDA,203801.009,15,11,2017,00,00*57
$GPRMC,203801.00,A,5436.80839424,N,00708.73489465,E,5.667,270.380,151117,999.9000,E,D*03
$GPGLL,5436.80839424,N,00708.73489465,E,203801.00,A,D*61
$GPGGA,203802.00,5436.80848843,N,00708.73233358,E,2,09,0.9,7.656,M,45.320,M,21.2,0762*7A
$GPVTG,277.04,T,,M,5.35,N,9.91,K,D*3C
$GPZDA,203802.008,15,11,2017,00,00*55
$GPRMC,203802.00,A,5436.80848843,N,00708.73233358,E,5.350,277.042,151117,999.9000,E,D*0E
$GPGLL,5436.80848843,N,00708.73233358,E,203802.00,A,D*67
$GPGGA,203803.00,5436.80868280,N,00708.72985901,E,2,09,0.9,7.620,M,45.320,M,22.2,0762*7F
$GPVTG,276.26,T,,M,5.14,N,9.52,K,D*31
$GPZDA,203803.009,15,11,2017,00,00*55
$GPRMC,203803.00,A,5436.80868280,N,00708.72985901,E,5.141,276.260,151117,999.9000,E,D*08
$GPGLL,5436.80868280,N,00708.72985901,E,203803.00,A,D*60
$GPGGA,203804.00,5436.80869577,N,00708.72737811,E,2,09,0.9,8.056,M,45.320,M,23.2,0762*78
$GPVTG,267.23,T,,M,5.22,N,9.66,K,D*36
$GPZDA,203804.010,15,11,2017,00,00*5A
$GPRMC,203804.00,A,5436.80869577,N,00708.72737811,E,5.216,267.225,151117,999.9000,E,D*06
$GPGLL,5436.80869577,N,00708.72737811,E,203804.00,A,D*6E
$GPGGA,203805.00,5436.80854574,N,00708.72484977,E,2,09,0.9,8.526,M,45.320,M,24.2,0762*7B
$GPVTG,263.55,T,,M,5.38,N,9.96,K,D*37
$GPZDA,203805.009,15,11,2017,00,00*53
$GPRMC,203805.00,A,5436.80854574,N,00708.72484977,E,5.380,263.545,151117,999.9000,E,D*0B
$GPGLL,5436.80854574,N,00708.72484977,E,203805.00,A,D*68
$GPGGA,203806.00,5436.80840214,N,00708.72229119,E,2,09,0.9,8.622,M,45.320,M,25.2,0762*7B
$GPVTG,266.11,T,,M,5.42,N,10.03,K,D*0B
$GPZDA,203806.009,15,11,2017,00,00*50
$GPRMC,203806.00,A,5436.80840214,N,00708.72229119,E,5.418,266.107,151117,999.9000,E,D*0C
$GPGLL,5436.80840214,N,00708.72229119,E,203806.00,A,D*6E
$GPGGA,203807.00,5436.80834653,N,00708.71971943,E,2,09,0.9,8.317,M,45.320,M,26.2,0762*7C
$GPVTG,270.01,T,,M,5.43,N,10.06,K,D*09
$GPZDA,203807.009,15,11,2017,00,00*51
$GPRMC,203807.00,A,5436.80834653,N,00708.71971943,E,5.432,270.007,151117,999.9000,E,D*05
$GPGLL,5436.80834653,N,00708.71971943,E,203807.00,A,D*69
$GPGGA,203808.00,5436.80834070,N,00708.71715748,E,2,09,0.9,8.088,M,45.320,M,27.2,0762*79
$GPVTG,270.52,T,,M,5.37,N,9.95,K,D*3E
$GPZDA,203808.009,15,11,2017,00,00*5E
$GPRMC,203808.00,A,5436.80834070,N,00708.71715748,E,5.373,270.520,151117,999.9000,E,D*06
$GPGLL,5436.80834070,N,00708.71715748,E,203808.00,A,D*68
$GPGGA,203809.00,5436.80829477,N,00708.71461155,E,2,09,0.9,8.226,M,45.320,M,28.2,0762*74
$GPVTG,268.07,T,,M,5.29,N,9.80,K,D*3C
$GPZDA,203809.010,15,11,2017,00,00*57
$GPRMC,203809.00,A,5436.80829477,N,00708.71461155,E,5.293,268.068,151117,999.9000,E,D*0D
$GPGLL,5436.80829477,N,00708.71461155,E,203809.00,A,D*6C
$GPGGA,203810.00,5436.80825879,N,00708.71213783,E,2,09,0.9,8.664,M,45.320,M,29.2,0762*7F
$GPVTG,269.52,T,,M,5.08,N,9.41,K,D*33
$GPZDA,203810.010,15,11,2017,00,00*5F
$GPRMC,203810.00,A,5436.80825879,N,00708.71213783,E,5.080,269.516,151117,999.9000,E,D*08
$GPGLL,5436.80825879,N,00708.71213783,E,203810.00,A,D*64
$GPGGA,203811.00,5436.80819939,N,00708.70980650,E,2,09,0.9,9.044,M,45.320,M,30.2,0762*76
$GPVTG,270.99,T,,M,4.92,N,9.12,K,D*38
$GPZDA,203811.009,15,11,2017,00,00*56
$GPRMC,203811.00,A,5436.80819939,N,00708.70980650,E,4.924,270.993,151117,999.9000,E,D*03
$GPGLL,5436.80819939,N,00708.70980650,E,203811.00,A,D*60
$GPGGA,203812.00,5436.80817383,N,00708.70732273,E,2,09,0.9,8.908,M,45.320,M,31.2,0762*73
$GPVTG,271.12,T,,M,5.44,N,10.08,K,D*03
$GPZDA,203812.010,15,11,2017,00,00*5D
$GPRMC,203812.00,A,5436.80817383,N,00708.70732273,E,5.442,271.117,151117,999.9000,E,D*0E
$GPGLL,5436.80817383,N,00708.70732273,E,203812.00,A,D*64
$GPGGA,203813.00,5436.80820154,N,00708.70462266,E,2,09,0.9,8.466,M,45.320,M,32.2,0762*7A
$GPVTG,271.98,T,,M,5.77,N,10.68,K,D*07
$GPZDA,203813.010,15,11,2017,00,00*5C
$GPRMC,203813.00,A,5436.80820154,N,00708.70462266,E,5.766,271.978,151117,999.9000,E,D*05
$GPGLL,5436.80820154,N,00708.70462266,E,203813.00,A,D*6B
$GPGGA,203814.00,5436.80834146,N,00708.70207728,E,2,09,0.9,8.351,M,45.320,M,33.2,0762*73
$GPVTG,268.47,T,,M,5.13,N,9.50,K,D*3C
$GPZDA,203814.009,15,11,2017,00,00*53
$GPRMC,203814.00,A,5436.80834146,N,00708.70207728,E,5.131,268.465,151117,999.9000,E,D*03
$GPGLL,5436.80834146,N,00708.70207728,E,203814.00,A,D*60
$GPGGA,203815.00,5436.80827364,N,00708.69981171,E,2,09,0.9,8.960,M,45.320,M,34.2,0762*7A
$GPVTG,264.10,T,,M,4.59,N,8.50,K,D*3C
$GPZDA,203815.010,15,11,2017,00,00*5A
$GPRMC,203815.00,A,5436.80827364,N,00708.69981171,E,4.588,264.105,151117,999.9000,E,D*0D
$GPGLL,5436.80827364,N,00708.69981171,E,203815.00,A,D*66
$GPGGA,203816.00,5436.80811314,N,00708.69754286,E,2,09,0.9,9.429,M,45.320,M,35.2,0762*76
$GPVTG,264.13,T,,M,5.05,N,9.34,K,D*34
$GPZDA,203816.009,15,11,2017,00,00*51
$GPRMC,203816.00,A,5436.80811314,N,00708.69754286,E,5.046,264.134,151117,999.9000,E,D*05
$GPGLL,5436.80811314,N,00708.69754286,E,203816.00,A,D*6A
$GPGGA,203817.00,5436.80801053,N,00708.69493834,E,2,09,0.9,9.136,M,45.320,M,36.2,0762*75
$GPVTG,267.99,T,,M,5.75,N,10.65,K,D*0E
$GPZDA,203817.009,15,11,2017,00,00*50
$GPRMC,203817.00,A,5436.80801053,N,00708.69493834,E,5.753,267.989,151117,999.9000,E,D*00
$GPGLL,5436.80801053,N,00708.69493834,E,203817.00,A,D*61
$GPGGA,203818.00,5436.80801043,N,00708.69221275,E,2,09,0.9,8.546,M,45.320,M,37.2,0762*78
$GPVTG,271.08,T,,M,5.60,N,10.36,K,D*03
$GPZDA,203818.009,15,11,2017,00,00*5F
$GPRMC,203818.00,A,5436.80801043,N,00708.69221275,E,5.595,271.079,151117,999.9000,E,D*07
$GPGLL,5436.80801043,N,00708.69221275,E,203818.00,A,D*6F
$GPGGA,203819.00,5436.80806951,N,00708.68972859,E,2,09,0.9,8.505,M,45.320,M,38.2,0762*74
$GPVTG,274.94,T,,M,5.00,N,9.27,K,D*3D
$GPZDA,203819.009,15,11,2017,00,00*5E
$GPRMC,203819.00,A,5436.80806951,N,00708.68972859,E,5.004,274.940,151117,999.9000,E,D*08
$GPGLL,5436.80806951,N,00708.68972859,E,203819.00,A,D*6B
$GPGGA,203820.00,5436.80813325,N,00708.68734108,E,2,09,0.9,8.964,M,45.320,M,39.2,0762*78
$GPVTG,274.24,T,,M,5.01,N,9.28,K,D*38
$GPZDA,203820.009,15,11,2017,00,00*54
$GPRMC,203820.00,A,5436.80813325,N,00708.68734108,E,5.009,274.243,151117,999.9000,E,D*0B
$GPGLL,5436.80813325,N,00708.68734108,E,203820.00,A,D*6D
$GPGGA,203821.00,5436.80811776,N,00708.68488703,E,2,09,0.9,9.407,M,45.320,M,40.2,0762*77
$GPVTG,268.57,T,,M,5.20,N,9.63,K,D*3D
$GPZDA,203821.009,15,11,2017,00,00*55
$GPRMC,203821.00,A,5436.80811776,N,00708.68488703,E,5.197,268.566,151117,999.9000,E,D*08
$GPGLL,5436.80811776,N,00708.68488703,E,203821.00,A,D*65
$GPGGA,203822.00,5436.80810373,N,00708.68234975,E,2,09,0.9,9.490,M,45.320,M,41.2,0762*75
$GPVTG,264.52,T,,M,5.15,N,9.53,K,D*31
$GPZDA,203822.008,15,11,2017,00,00*57
$GPRMC,203822.00,A,5436.80810373,N,00708.68234975,E,5.148,264.522,151117,999.9000,E,D*0B
$GPGLL,5436.80810373,N,00708.68234975,E,203822.00,A,D*68
$GPGGA,203823.00,5436.80805428,N,00708.67984521,E,2,09,0.9,9.239,M,45.320,M,42.2,0762*7D
$GPVTG,267.88,T,,M,5.27,N,9.76,K,D*33
$GPZDA,203823.009,15,11,2017,00,00*57
$GPRMC,203823.00,A,5436.80805428,N,00708.67984521,E,5.272,267.876,151117,999.9000,E,D*00
$GPGLL,5436.80805428,N,00708.67984521,E,203823.00,A,D*66
$GPGGA,203824.00,5436.80806487,N,00708.67723639,E,2,09,0.9,8.740,M,45.320,M,43.2,0762*7E
$GPVTG,271.14,T,,M,5.58,N,10.33,K,D*00
$GPZDA,203824.009,15,11,2017,00,00*50
$GPRMC,203824.00,A,5436.80806487,N,00708.67723639,E,5.580,271.141,151117,999.9000,E,D*08
$GPGLL,5436.80806487,N,00708.67723639,E,203824.00,A,D*6E
$GPGGA,203825.00,5436.80810853,N,00708.67461571,E,2,09,0.9,8.367,M,45.320,M,44.2,0762*71
$GPVTG,270.24,T,,M,5.41,N,10.03,K,D*09
$GPZDA,203825.009,15,11,2017,00,00*51
$GPRMC,203825.00,A,5436.80810853,N,00708.67461571,E,5.414,270.243,151117,999.9000,E,D*0D
$GPGLL,5436.80810853,N,00708.67461571,E,203825.00,A,D*67
$GPGGA,203826.00,5436.80810851,N,00708.67219745,E,2,09,0.9,8.548,M,45.320,M,45.2,0762*76
$GPVTG,269.56,T,,M,4.89,N,9.05,K,D*3F
$GPZDA,203826.009,15,11,2017,00,00*52
$GPRMC,203826.00,A,5436.80810851,N,00708.67219745,E,4.889,269.561,151117,999.9000,E,D*06
$GPGLL,5436.80810851,N,00708.67219745,E,203826.00,A,D*6A
$GPGGA,203827.00,5436.80814217,N,00708.66986967,E,2,09,0.9,9.012,M,45.320,M,46.2,0762*71
$GPVTG,271.53,T,,M,4.84,N,8.96,K,D*35
$GPZDA,203827.009,15,11,2017,00,00*53
$GPRMC,203827.00,A,5436.80814217,N,00708.66986967,E,4.836,271.535,151117,999.9000,E,D*05
$GPGLL,5436.80814217,N,00708.66986967,E,203827.00,A,D*65
$GPGGA,203828.00,5436.80819257,N,00708.66740341,E,2,09,0.9,9.124,M,45.320,M,47.2,0762*78
$GPVTG,271.78,T,,M,5.28,N,9.78,K,D*3A
$GPZDA,203828.008,15,11,2017,00,00*5D
$GPRMC,203828.00,A,5436.80819257,N,00708.66740341,E,5.283,271.777,151117,999.9000,E,D*08
$GPGLL,5436.80819257,N,00708.66740341,E,203828.00,A,D*69
$GPGGA,203829.00,5436.80820429,N,00708.66485615,E,2,09,0.9,8.896,M,45.320,M,48.2,0762*7C
$GPVTG,269.67,T,,M,5.40,N,10.00,K,D*04
$GPZDA,203829.009,15,11,2017,00,00*5D
$GPRMC,203829.00,A,5436.80820429,N,00708.66485615,E,5.398,269.665,151117,999.9000,E,D*02
$GPGLL,5436.80820429,N,00708.66485615,E,203829.00,A,D*63
$GPGGA,203830.00,5436.80809673,N,00708.66232216,E,2,09,0.9,8.701,M,45.320,M,49.2,0762*7F
$GPVTG,265.44,T,,M,5.30,N,9.82,K,D*3C
$GPZDA,203830.008,15,11,2017,00,00*54
$GPRMC,203830.00,A,5436.80809673,N,00708.66232216,E,5.304,265.439,151117,999.9000,E,D*03
$GPGLL,5436.80809673,N,00708.66232216,E,203830.00,A,D*60
$GPGGA,203831.00,5436.80795455,N,00708.65982919,E,2,09,0.9,8.586,M,45.320,M,50.2,0762*70
$GPVTG,264.69,T,,M,5.21,N,9.64,K,D*3A
$GPZDA,203831.008,15,11,2017,00,00*55
$GPRMC,203831.00,A,5436.80795455,N,00708.65982919,E,5.206,264.686,151117,999.9000,E,D*0D
$GPGLL,5436.80795455,N,00708.65982919,E,203831.00,A,D*6A
$GPGGA,203832.00,5436.80786683,N,00708.65737284,E,2,09,0.9,8.559,M,45.320,M,51.2,0762*74
$GPVTG,268.36,T,,M,5.09,N,9.43,K,D*33
$GPZDA,203832.008,15,11,2017,00,00*56
$GPRMC,203832.00,A,5436.80786683,N,00708.65737284,E,5.093,268.360,151117,999.9000,E,D*05
$GPGLL,5436.80786683,N,00708.65737284,E,203832.00,A,D*6D
$GPGGA,203833.00,5436.80798337,N,00708.65494293,E,2,09,0.9,8.503,M,45.320,M,52.2,0762*70
$GPVTG,275.40,T,,M,5.04,N,9.34,K,D*33
$GPZDA,203833.008,15,11,2017,00,00*57
$GPRMC,203833.00,A,5436.80798337,N,00708.65494293,E,5.041,275.396,151117,999.9000,E,D*07
$GPGLL,5436.80798337,N,00708.65494293,E,203833.00,A,D*65
$GPGGA,203834.00,5436.80816513,N,00708.65250289,E,2,09,0.9,8.522,M,45.320,M,53.2,0762*79
$GPVTG,277.61,T,,M,5.26,N,9.74,K,D*36
$GPZDA,203834.009,15,11,2017,00,00*51
$GPRMC,203834.00,A,5436.80816513,N,00708.65250289,E,5.259,277.606,151117,999.9000,E,D*09
$GPGLL,5436.80816513,N,00708.65250289,E,203834.00,A,D*6E
$GPGGA,203835.00,5436.80823284,N,00708.64995258,E,2,09,0.9,8.560,M,45.320,M,54.2,0762*79
$GPVTG,270.16,T,,M,5.40,N,10.00,K,D*0A
$GPZDA,203835.009,15,11,2017,00,00*50
$GPRMC,203835.00,A,5436.80823284,N,00708.64995258,E,5.397,270.161,151117,999.9000,E,D*0A
$GPGLL,5436.80823284,N,00708.64995258,E,203835.00,A,D*6F
$GPGGA,203836.00,5436.80815205,N,00708.64741939,E,2,09,0.9,8.670,M,45.320,M,55.2,0762*7E
$GPVTG,264.95,T,,M,5.25,N,9.72,K,D*3A
$GPZDA,203836.008,15,11,2017,00,00*52
$GPRMC,203836.00,A,5436.80815205,N,00708.64741939,E,5.250,264.949,151117,999.9000,E,D*03
$GPGLL,5436.80815205,N,00708.64741939,E,203836.00,A,D*6B
$GPGGA,203837.00,5436.80806437,N,00708.64496557,E,2,09,0.9,8.697,M,45.320,M,56.2,0762*7D
$GPVTG,266.63,T,,M,5.07,N,9.38,K,D*3F
$GPZDA,203837.009,15,11,2017,00,00*52
$GPRMC,203837.00,A,5436.80806437,N,00708.64496557,E,5.065,266.627,151117,999.9000,E,D*0B
$GPGLL,5436.80806437,N,00708.64496557,E,203837.00,A,D*62
$GPGGA,203838.00,5436.80816366,N,00708.64231957,E,2,09,0.9,8.219,M,45.320,M,24.8,0762*7A
$GPVTG,269.91,T,,M,5.20,N,9.63,K,D*36
$GPZDA,203838.009,15,11,2017,00,00*5D
$GPRMC,203838.00,A,5436.80816366,N,00708.64231957,E,5.201,269.910,151117,999.9000,E,D*05
$GPGLL,5436.80816366,N,00708.64231957,E,203838.00,A,D*68
$GPGGA,203839.00,5436.80822885,N,00708.63976649,E,2,09,0.9,7.820,M,45.320,M,25.8,0762*7B
$GPVTG,270.89,T,,M,5.20,N,9.63,K,D*37
$GPZDA,203839.009,15,11,2017,00,00*5C
$GPRMC,203839.00,A,5436.80822885,N,00708.63976649,E,5.197,270.892,151117,999.9000,E,D*05
$GPGLL,5436.80822885,N,00708.63976649,E,203839.00,A,D*67
$GPGGA,203840.00,5436.80825220,N,00708.63730127,E,2,09,0.9,7.725,M,45.320,M,26.8,0762*7D
$GPVTG,270.36,T,,M,5.11,N,9.46,K,D*36
$GPZDA,203840.009,15,11,2017,00,00*52
$GPRMC,203840.00,A,5436.80825220,N,00708.63730127,E,5.107,270.359,151117,999.9000,E,D*0F
$GPGLL,5436.80825220,N,00708.63730127,E,203840.00,A,D*68
$GPGGA,203841.00,5436.80825614,N,00708.63477804,E,2,09,0.9,7.645,M,45.320,M,27.8,0762*71
$GPVTG,267.74,T,,M,5.19,N,9.62,K,D*38
$GPZDA,203841.008,15,11,2017,00,00*52
$GPRMC,203841.00,A,5436.80825614,N,00708.63477804,E,5.192,267.737,151117,999.9000,E,D*03
$GPGLL,5436.80825614,N,00708.63477804,E,203841.00,A,D*62
$GPGGA,203842.00,5436.80822775,N,00708.63226581,E,2,09,0.9,7.401,M,45.320,M,28.8,0762*7C
$GPVTG,268.96,T,,M,5.20,N,9.63,K,D*30
$GPZDA,203842.009,15,11,2017,00,00*50
$GPRMC,203842.00,A,5436.80822775,N,00708.63226581,E,5.199,268.961,151117,999.9000,E,D*0A
$GPGLL,5436.80822775,N,00708.63226581,E,203842.00,A,D*62
$GPGGA,203843.00,5436.80823315,N,00708.62978399,E,2,09,0.9,7.068,M,45.320,M,29.8,0762*7A
$GPVTG,272.16,T,,M,5.20,N,9.63,K,D*33
$GPZDA,203843.009,15,11,2017,00,00*51
$GPRMC,203843.00,A,5436.80823315,N,00708.62978399,E,5.200,272.159,151117,999.9000,E,D*0D
$GPGLL,5436.80823315,N,00708.62978399,E,203843.00,A,D*6E
$GPGGA,203844.00,5436.80823289,N,00708.62731791,E,2,09,0.9,6.948,M,45.320,M,30.8,0762*74
$GPVTG,273.29,T,,M,5.22,N,9.67,K,D*38
$GPZDA,203844.009,15,11,2017,00,00*56
$GPRMC,203844.00,A,5436.80823289,N,00708.62731791,E,5.224,273.295,151117,999.9000,E,D*05
$GPGLL,5436.80823289,N,00708.62731791,E,203844.00,A,D*62
$GPGGA,203845.00,5436.80828970,N,00708.62480646,E,2,09,0.9,6.998,M,45.320,M,31.8,0762*7D
$GPVTG,272.71,T,,M,5.28,N,9.77,K,D*3F
$GPZDA,203845.010,15,11,2017,00,00*5F
$GPRMC,203845.00,A,5436.80828970,N,00708.62480646,E,5.276,272.706,151117,999.9000,E,D*09
$GPGLL,5436.80828970,N,00708.62480646,E,203845.00,A,D*67
$GPGGA,203846.00,5436.80838188,N,00708.62234932,E,2,09,0.9,7.170,M,45.320,M,11.2,0762*72
$GPVTG,268.56,T,,M,5.20,N,9.62,K,D*3D
$GPZDA,203846.009,15,11,2017,00,00*54
$GPRMC,203846.00,A,5436.80838188,N,00708.62234932,E,5.195,268.556,151117,999.9000,E,D*03
$GPGLL,5436.80838188,N,00708.62234932,E,203846.00,A,D*6F
$GPGGA,203847.00,5436.80830117,N,00708.61995727,E,2,09,0.9,7.487,M,45.320,M,12.2,0762*7A
$GPVTG,261.54,T,,M,5.00,N,9.26,K,D*34
$GPZDA,203847.009,15,11,2017,00,00*55
$GPRMC,203847.00,A,5436.80830117,N,00708.61995727,E,5.002,261.541,151117,999.9000,E,D*05
$GPGLL,5436.80830117,N,00708.61995727,E,203847.00,A,D*69
$GPGGA,203848.00,5436.80808411,N,00708.61762882,E,2,09,0.9,7.685,M,45.320,M,13.2,0762*7A
$GPVTG,259.15,T,,M,4.95,N,9.16,K,D*34
$GPZDA,203848.009,15,11,2017,00,00*5A
$GPRMC,203848.00,A,5436.80808411,N,00708.61762882,E,4.945,259.151,151117,999.9000,E,D*01
$GPGLL,5436.80808411,N,00708.61762882,E,203848.00,A,D*68
$GPGGA,203849.00,5436.80796539,N,00708.61515926,E,2,09,0.9,7.362,M,45.320,M,14.2,0762*7E
$GPVTG,268.58,T,,M,5.47,N,10.13,K,D*0C
$GPZDA,203849.010,15,11,2017,00,00*53
$GPRMC,203849.00,A,5436.80796539,N,00708.61515926,E,5.471,268.575,151117,999.9000,E,D*05
$GPGLL,5436.80796539,N,00708.61515926,E,203849.00,A,D*67
$GPGGA,203850.00,5436.80808866,N,00708.61250023,E,2,09,0.9,6.563,M,45.320,M,15.2,0762*74
$GPVTG,277.43,T,,M,5.68,N,10.52,K,D*00
$GPZDA,203850.009,15,11,2017,00,00*53
$GPRMC,203850.00,A,5436.80808866,N,00708.61250023,E,5.681,277.426,151117,999.9000,E,D*0C
$GPGLL,5436.80808866,N,00708.61250023,E,203850.00,A,D*6A
$GPGGA,203851.00,5436.80832492,N,00708.60995702,E,2,09,0.9,6.240,M,45.320,M,16.2,0762*79
$GPVTG,277.23,T,,M,5.01,N,9.27,K,D*33
$GPZDA,203851.010,15,11,2017,00,00*5A
$GPRMC,203851.00,A,5436.80832492,N,00708.60995702,E,5.005,277.231,151117,999.9000,E,D*0E
$GPGLL,5436.80832492,N,00708.60995702,E,203851.00,A,D*62
$GPGGA,203852.00,5436.80848293,N,00708.60765226,E,2,09,0.9,6.717,M,45.320,M,17.2,0762*74
$GPVTG,271.92,T,,M,4.65,N,8.62,K,D*3C
$GPZDA,203852.010,15,11,2017,00,00*59
$GPRMC,203852.00,A,5436.80848293,N,00708.60765226,E,4.653,271.923,151117,999.9000,E,D*0F
$GPGLL,5436.80848293,N,00708.60765226,E,203852.00,A,D*69
$GPGGA,203853.00,5436.80845146,N,00708.60527387,E,2,09,0.9,7.259,M,45.320,M,18.2,0762*7C
$GPVTG,265.03,T,,M,5.15,N,9.53,K,D*34
$GPZDA,203853.010,15,11,2017,00,00*58
$GPRMC,203853.00,A,5436.80845146,N,00708.60527387,E,5.147,265.025,151117,999.9000,E,D*0F
$GPGLL,5436.80845146,N,00708.60527387,E,203853.00,A,D*60
$GPGGA,203854.00,5436.80833464,N,00708.60264849,E,2,09,0.9,7.111,M,45.320,M,19.2,0762*78
$GPVTG,264.58,T,,M,5.64,N,10.44,K,D*03
$GPZDA,203854.010,15,11,2017,00,00*5F
$GPRMC,203854.00,A,5436.80833464,N,00708.60264849,E,5.638,264.579,151117,999.9000,E,D*07
$GPGLL,5436.80833464,N,00708.60264849,E,203854.00,A,D*6A
$GPGGA,203855.00,5436.80828529,N,00708.60002982,E,2,09,0.9,6.523,M,45.320,M,20.2,0762*71
$GPVTG,268.49,T,,M,5.40,N,10.01,K,D*08
$GPZDA,203855.009,15,11,2017,00,00*56
$GPRMC,203855.00,A,5436.80828529,N,00708.60002982,E,5.405,268.493,151117,999.9000,E,D*05
$GPGLL,5436.80828529,N,00708.60002982,E,203855.00,A,D*6D
$GPGGA,203856.00,5436.80831430,N,00708.59760108,E,2,09,0.9,6.251,M,45.320,M,21.2,0762*73
$GPVTG,270.64,T,,M,4.90,N,9.07,K,D*3C
$GPZDA,203856.009,15,11,2017,00,00*55
$GPRMC,203856.00,A,5436.80831430,N,00708.59760108,E,4.896,270.643,151117,999.9000,E,D*05
$GPGLL,5436.80831430,N,00708.59760108,E,203856.00,A,D*6C
$GPGGA,203857.00,5436.80824039,N,00708.59524189,E,2,09,0.9,6.586,M,45.320,M,22.2,0762*7E
$GPVTG,268.31,T,,M,4.79,N,8.86,K,D*3A
$GPZDA,203857.009,15,11,2017,00,00*54
$GPRMC,203857.00,A,5436.80824039,N,00708.59524189,E,4.785,268.308,151117,999.9000,E,D*08
$GPGLL,5436.80824039,N,00708.59524189,E,203857.00,A,D*6F
$GPGGA,203858.00,5436.80813207,N,00708.59285267,E,2,09,0.9,6.996,M,45.320,M,23.2,0762*79
$GPVTG,265.75,T,,M,5.04,N,9.34,K,D*34
$GPZDA,203858.009,15,11,2017,00,00*5B
$GPRMC,203858.00,A,5436.80813207,N,00708.59285267,E,5.043,265.750,151117,999.9000,E,D*0B
$GPGLL,5436.80813207,N,00708.59285267,E,203858.00,A,D*64
$GPGGA,203859.00,5436.80801838,N,00708.59042618,E,2,09,0.9,7.044,M,45.320,M,24.2,0762*78
$GPVTG,265.54,T,,M,5.13,N,9.50,K,D*33
$GPZDA,203859.009,15,11,2017,00,00*5A
$GPRMC,203859.00,A,5436.80801838,N,00708.59042618,E,5.130,265.545,151117,999.9000,E,D*09
$GPGLL,5436.80801838,N,00708.59042618,E,203859.00,A,D*65
$GPGGA,203900.00,5436.80787412,N,00708.58808091,E,2,09,0.9,6.865,M,45.320,M,15.0,0762*7A
$GPVTG,269.59,T,,M,5.24,N,9.70,K,D*34
$GPZDA,203900.009,15,11,2017,00,00*57
$GPRMC,203900.00,A,5436.80787412,N,00708.58808091,E,5.238,269.592,151117,999.9000,E,D*0C
$GPGLL,5436.80787412,N,00708.58808091,E,203900.00,A,D*6D
$GPGGA,203901.00,5436.80793140,N,00708.58555702,E,2,09,0.9,6.404,M,45.320,M,16.0,0762*7C
$GPVTG,274.39,T,,M,5.40,N,10.00,K,D*03
$GPZDA,203901.008,15,11,2017,00,00*57
$GPRMC,203901.00,A,5436.80793140,N,00708.58555702,E,5.400,274.394,151117,999.9000,E,D*03
